City_ID,City,Lat,Lng,Max Temp,Humidity,Cloudiness,Wind Speed,Country,Date
0,kez,57.8979,53.7152,-26.95,100,23,3.04,RU,1704511782
1,kailua-kona,19.6406,-155.9956,79.5,71,0,5.75,US,1704511532
2,tiksi,71.6872,128.8694,-28.7,99,59,7.29,RU,1704511783
3,san patricio,28.017,-97.5169,61.84,44,0,6.87,US,1704511784
4,ambon,-3.6954,128.1814,82.54,89,40,5.75,ID,1704511784
5,qaisumah,28.3112,46.1273,51.76,76,0,4.61,SA,1704511593
6,toliara,-23.35,43.6667,79.65,76,6,2.57,MG,1704511786
7,beau vallon,-20.4189,57.6953,86.22,94,75,0.0,MU,1704511786
8,port-aux-francais,-49.35,70.2167,43.63,89,100,39.91,TF,1704511787
9,nadym,65.5333,72.5167,-15.48,89,98,10.38,RU,1704511787
10,georgetown,5.4112,100.3354,87.75,62,20,9.22,MY,1704511788
11,bethel,41.3712,-73.414,29.93,76,0,4.61,US,1704511789
12,ribeira grande,38.5167,-28.7,61.77,81,44,10.0,PT,1704511789
13,awjilah,29.1081,21.2869,55.53,44,40,10.76,LY,1704511790
14,waitangi,-43.9535,-176.5597,60.82,97,100,3.0,NZ,1704511570
15,huejutla de reyes,21.1333,-98.4167,65.62,95,51,2.75,MX,1704511791
16,key west,24.5557,-81.7826,75.2,78,0,16.11,US,1704511792
17,portland,45.5234,-122.6762,48.24,81,100,14.0,US,1704511792
18,adamstown,-25.066,-130.1015,73.27,72,37,17.02,PN,1704511793
19,pestovo,58.5938,35.8024,-10.84,96,100,3.62,RU,1704511794
20,bikenibeu village,1.3673,173.1241,87.76,70,20,3.44,KI,1704511794
21,palangkaraya,-2.2,113.8333,85.08,70,100,2.37,ID,1704511688
22,agbabu,6.5886,4.8343,75.34,95,33,1.01,NG,1704511796
23,hermanus,-34.4187,19.2345,65.68,77,56,8.14,ZA,1704511797
24,deqing,30.5448,119.9599,55.69,53,27,1.95,CN,1704511798
25,qarazhal,48.0078,70.7903,25.77,97,100,4.97,KZ,1704511798
26,san antonio de pale,-1.4014,5.6325,81.68,72,19,10.25,GQ,1704511800
27,hawaiian paradise park,19.5933,-154.9731,77.04,83,0,4.61,US,1704511800
28,west island,-12.1568,96.8225,84.18,79,75,13.8,CC,1704511801
29,wailua homesteads,22.0669,-159.378,79.23,83,0,5.75,US,1704511803
30,doma,8.3833,8.35,74.35,20,55,2.75,NG,1704511803
31,vorgashor,67.5833,63.95,-0.04,97,100,14.12,RU,1704511804
32,nuuk,64.1835,-51.7216,13.93,78,100,8.23,GL,1704511731
33,dudinka,69.4058,86.1778,-21.32,99,61,5.99,RU,1704511806
34,inari,68.906,27.0288,-9.2,96,100,1.72,FI,1704511807
35,kaa-khem,51.6833,94.7333,-9.6,92,100,1.74,RU,1704511808
36,udachny,66.4167,112.4,-26.55,74,86,6.62,RU,1704511808
37,mocimboa,-11.3167,40.35,76.24,92,76,5.12,MZ,1704511810
38,edinburgh of the seven seas,-37.0676,-12.3116,58.01,65,28,12.97,SH,1704511810
39,el calafate,-50.3408,-72.2768,47.8,60,95,9.71,AR,1704511811
40,santo antonio,-6.3106,-35.4789,75.96,86,21,3.96,BR,1704511812
41,tafuna,-14.3358,-170.72,87.75,84,75,11.5,AS,1704511812
42,kolonia,50.9333,6.95,45.05,88,75,4.61,DE,1704511523
43,east london,-33.0153,27.9116,68.94,94,0,3.44,ZA,1704511744
44,mount hagen,-5.8581,144.2274,70.56,68,75,11.5,PG,1704511814
45,ilulissat,69.2167,-51.1,19.42,42,75,27.63,GL,1704511723
46,longyearbyen,78.2186,15.6401,3.04,66,75,8.05,SJ,1704511816
47,nanding,36.7483,118.0558,36.84,31,0,11.05,CN,1704511816
48,malango,-2.9627,119.9001,82.6,66,97,2.46,ID,1704511817
49,fort morgan,40.2503,-103.8,32.65,80,97,9.22,US,1704511817
50,novodvinsk,64.4165,40.8122,-9.22,99,100,3.33,RU,1704511818
51,truro,50.2653,-5.0544,45.68,80,20,10.36,GB,1704511745
52,hassi messaoud,31.6804,6.0729,49.86,87,75,5.75,DZ,1704511819
53,libreville,0.3925,9.4537,73.42,94,40,2.3,GA,1704511820
54,bamboo flat,11.7,92.7167,84.29,74,20,8.05,IN,1704511820
55,asau,46.4333,26.4,33.28,47,100,4.38,RO,1704511821
56,yanchep,-31.55,115.6833,88.95,37,3,8.21,AU,1704511822
57,santa terezinha,-29.9002,-50.0904,70.05,90,9,13.44,BR,1704511822
58,boa vista,2.8197,-60.6733,84.18,58,0,5.75,BR,1704511823
59,poronaysk,49.2167,143.1167,13.77,87,99,6.44,RU,1704511823
60,kodiak,57.79,-152.4072,31.51,93,40,3.44,US,1704511824
61,neiafu,-18.65,-173.9833,84.88,70,20,5.75,TO,1704511825
62,floro,61.5996,5.0328,22.96,68,15,6.91,NO,1704511825
63,ain sefra,32.75,-0.5833,38.73,77,29,20.47,DZ,1704511826
64,conde,-7.2597,-34.9075,78.26,89,75,2.3,BR,1704511827
65,grytviken,-54.2811,-36.5092,40.5,81,98,0.72,GS,1704511827
66,tosontsengel,48.7567,98.2839,-6.05,74,9,1.81,MN,1704511828
67,albany,42.6001,-73.9662,30.02,75,71,7.34,US,1704511829
68,kruisfontein,-34.0033,24.7314,63.88,83,33,16.06,ZA,1704511829
69,lebu,-37.6167,-73.65,56.61,95,6,2.77,CL,1704511830
70,huanuco,-9.9329,-76.2415,66.43,84,100,2.24,PE,1704511830
71,nantucket,41.2835,-70.0995,30.34,64,0,8.05,US,1704511831
72,klyuchi,52.2667,79.1667,21.94,87,100,12.06,RU,1704511832
73,talnakh,69.4865,88.3972,-17.9,94,67,8.77,RU,1704511770
74,keflavik,64.0049,-22.5624,34.23,80,75,13.8,IS,1704511833
75,chesapeake beach,38.6862,-76.5347,34.25,79,98,7.7,US,1704511833
76,hamilton,39.1834,-84.5333,36.99,69,0,8.05,US,1704511834
77,port lincoln,-34.7333,135.8667,72.28,69,100,10.8,AU,1704511835
78,iqaluit,63.7506,-68.5145,-4.27,71,75,4.61,CA,1704511584
79,port saint john's,-31.6229,29.5448,71.33,82,7,10.71,ZA,1704511836
80,punta arenas,-53.15,-70.9167,46.51,81,40,13.8,CL,1704511836
81,cape canaveral,28.4058,-80.6048,70.99,79,20,14.97,US,1704511837
82,as sulayyil,20.4607,45.5779,57.45,57,21,6.11,SA,1704511838
83,el haouaria,37.05,11.0144,53.62,85,100,13.29,TN,1704511838
84,dalian,38.9122,121.6022,30.13,59,0,11.18,CN,1704511839
85,massawa,15.6097,39.45,77.29,75,27,3.22,ER,1704511839
86,margaret river,-33.95,115.0667,72.52,58,0,11.1,AU,1704511840
87,tsafe,11.9553,6.9223,62.8,20,35,7.72,NG,1704511841
88,langsa,4.4683,97.9683,85.26,68,84,4.61,ID,1704511842
89,pisco,-13.7,-76.2167,71.65,83,0,12.66,PE,1704511843
90,kavaratti,10.5669,72.642,81.63,76,95,7.27,IN,1704511571
91,torit,4.4133,32.5678,73.18,35,1,0.45,SS,1704511844
92,leh,34.1667,77.5833,19.76,54,56,1.1,IN,1704511845
93,jumla,29.2747,82.1838,44.98,23,0,1.57,NP,1704511845
94,jamestown,42.097,-79.2353,29.79,98,0,0.0,US,1704511846
95,yuzhno-kurilsk,44.0306,145.8556,35.38,95,65,13.76,RU,1704511846
96,vorkuta,67.5,64.0,-0.2,97,100,15.35,RU,1704511787
97,prado,-17.3411,-39.2208,75.16,97,100,9.15,BR,1704511848
98,tadine,-21.55,167.8833,81.7,72,34,7.83,NC,1704511848
99,acarau,-2.8856,-40.12,79.25,82,93,9.46,BR,1704511849
100,levuka,50.1834,-105.4011,17.31,96,100,6.4,CA,1704511850
101,krutinka,56.0055,71.5113,-10.59,98,26,7.81,RU,1704511850
102,mount isa,-20.7333,139.5,96.57,38,85,8.05,AU,1704511851
103,agat village,13.3886,144.6585,88.74,77,75,14.97,GU,1704511851
104,hudson,40.7168,-74.0663,35.98,60,0,11.5,US,1704511852
105,acapulco de juarez,16.8634,-99.8901,78.62,78,0,6.91,MX,1704511853
106,lihue,21.9789,-159.3672,79.84,79,0,5.75,US,1704511853
107,tarlungeni,45.6333,25.75,47.34,55,100,2.68,RO,1704511854
108,remire-montjoly,4.9167,-52.2667,80.64,83,75,5.75,GF,1704511855
109,hobyo,5.3505,48.5268,76.66,66,98,16.51,SO,1704511855
110,anadyr,64.75,177.4833,0.1,85,40,11.18,RU,1704511856
111,khandyga,62.6667,135.6,-28.68,100,99,1.19,RU,1704511856
112,hakui,36.8833,136.7833,52.45,74,87,15.21,JP,1704511857
113,blackmans bay,-43.0167,147.3167,73.53,63,29,4.0,AU,1704511858
114,nemuro,43.3236,145.575,34.12,71,95,11.65,JP,1704511858
115,atouguia da baleia,39.3381,-9.3263,51.19,79,38,10.0,PT,1704511859
116,trstenik,43.6169,21.0025,54.01,75,100,4.12,RS,1704511860
117,port blair,11.6667,92.75,84.24,74,20,8.05,IN,1704511860
118,bredasdorp,-34.5322,20.0403,65.16,76,88,6.58,ZA,1704511861
119,cabo san lucas,22.8909,-109.9124,70.75,55,40,0.0,MX,1704511862
120,newman,37.3138,-121.0208,50.02,80,28,2.71,US,1704511863
121,codrington,-38.2667,141.9667,79.14,53,100,13.67,AU,1704511863
122,chonchi,-42.6128,-73.8092,56.41,99,74,2.35,CL,1704511864
123,toba,34.4833,136.85,53.6,78,25,4.0,JP,1704511865
124,vernon,50.2581,-119.2691,38.44,79,100,1.99,CA,1704511669
125,lodeve,43.7167,3.3167,47.82,72,84,15.26,FR,1704511866
126,impfondo,1.6381,18.0667,74.43,57,94,1.7,CG,1704511866
127,constantia,44.1833,28.65,39.88,83,86,14.74,RO,1704511868
128,isafjordur,66.0755,-23.124,27.66,83,73,8.93,IS,1704511868
129,arraial do cabo,-22.9661,-42.0278,74.23,90,95,14.85,BR,1704511869
130,gadzhiyevo,69.2551,33.3362,-8.41,100,99,8.79,RU,1704511869
131,tolanaro,-25.0319,46.9987,75.27,94,75,6.91,MG,1704511870
132,katsuura,35.1333,140.3,62.62,52,25,27.31,JP,1704511871
133,quellon,-43.1167,-73.6167,51.08,94,72,5.19,CL,1704511871
134,grand falls-windsor,48.9332,-55.6649,22.5,83,100,10.25,CA,1704511872
135,natal,-5.795,-35.2094,81.25,83,20,10.36,BR,1704511725
136,ust-tsilma,65.441,52.1498,-4.4,97,99,5.99,RU,1704511873
137,chervonohryhorivka,47.623,34.5389,29.84,54,49,3.2,UA,1704511874
138,cozumel,20.5083,-86.9458,79.07,94,79,5.99,MX,1704511874
139,mugia,43.1041,-9.2179,45.91,70,15,13.27,ES,1704511875
140,kolosovka,56.4678,73.611,-7.02,98,55,7.9,RU,1704511876
141,tostado,-29.232,-61.7692,75.97,72,0,10.33,AR,1704511876
142,afaahiti,-17.75,-149.2833,82.27,93,100,11.18,PF,1704511878
143,makaha,21.4694,-158.2175,80.51,65,0,6.91,US,1704511878
144,dzuunharaa,48.8523,106.4579,-1.26,84,5,3.78,MN,1704511879
145,pionerskiy,54.9508,20.2275,28.24,62,96,7.36,RU,1704511693
146,bilibino,68.0546,166.4372,-40.67,100,93,0.43,RU,1704511880
147,tyuratam,45.6507,63.3156,33.73,83,35,9.13,KZ,1704511881
148,papatowai,-46.5619,169.4708,63.61,48,27,11.54,NZ,1704511881
149,sisimiut,66.9395,-53.6735,15.58,90,100,2.89,GL,1704511883
150,thompson,55.7435,-97.8558,-12.84,70,75,2.3,CA,1704511883
151,columbus,39.9612,-82.9988,32.41,75,100,8.05,US,1704511809
152,puerto ayora,-0.7393,-90.3518,77.56,97,45,5.01,EC,1704511885
153,hood river,45.7054,-121.5215,45.82,84,0,8.01,US,1704511885
154,waiuku,-37.25,174.75,74.25,74,11,10.18,NZ,1704511886
155,iwanai,42.9744,140.5089,33.6,71,99,12.93,JP,1704511886
156,la passe,45.5549,-0.8967,38.01,88,23,8.79,FR,1704511887
157,hadibu,12.65,54.0333,75.97,55,20,11.41,YE,1704511888
158,ushuaia,-54.8,-68.3,46.06,76,40,16.11,AR,1704511807
159,qaqortoq,60.7167,-46.0333,29.05,62,100,10.98,GL,1704511889
160,hithadhoo,-0.6,73.0833,80.8,80,100,11.88,MV,1704511890
161,zdvinsk,54.7021,78.661,7.65,94,100,13.09,RU,1704511891
162,cidreira,-30.1811,-50.2056,71.01,87,0,15.73,BR,1704511891
163,nar'yan-mar,67.6713,53.087,9.1,95,85,13.0,RU,1704511892
164,dryden,49.7833,-92.7503,17.89,93,100,5.75,CA,1704511893
165,ciudad lazaro cardenas,17.9583,-102.2,72.7,82,1,4.83,MX,1704511893
166,coahuayana de hidalgo,18.7,-103.6583,69.03,88,38,2.91,MX,1704511894
167,beli,7.8587,10.9719,69.8,26,75,2.8,NG,1704511894
168,unterschleissheim,48.2833,11.5667,40.95,95,75,0.0,DE,1704511895
169,sao jose da coroa grande,-8.8978,-35.1478,80.83,73,74,9.08,BR,1704511896
170,luanda,-8.8368,13.2343,75.2,77,40,2.3,AO,1704511754
171,maues,-3.3836,-57.7186,74.19,99,100,2.01,BR,1704511897
172,valdosta,30.8327,-83.2785,58.91,82,75,10.36,US,1704511897
173,sadalgi,16.5667,74.55,75.9,54,21,12.64,IN,1704511898
174,cabedelo,-6.9811,-34.8339,79.47,78,16,9.42,BR,1704511899
175,buffalo,42.8865,-78.8784,31.01,73,100,4.61,US,1704511658
176,alesund,62.4723,6.1549,26.76,77,20,6.91,NO,1704511900
177,weno,7.4515,151.8468,87.75,74,40,8.05,FM,1704511901
178,hammerfest,70.6634,23.6821,19.85,73,98,6.91,NO,1704511902
179,nur-sultan,51.1801,71.446,22.95,86,100,13.42,KZ,1704511795
180,namibe,-15.1961,12.1522,70.79,75,38,6.58,AO,1704511903
181,tuzha,57.6062,47.936,-9.35,99,98,3.71,RU,1704511903
182,saipan,15.1355,145.701,84.9,74,40,12.66,MP,1704511904
183,chinchilla,-26.75,150.6333,90.01,49,82,1.01,AU,1704511905
184,juankoski,63.0667,28.35,-16.64,96,100,2.15,FI,1704511905
185,tari,12.4086,4.4914,68.25,18,29,8.99,NG,1704511906
186,uturoa,-16.7333,-151.4333,77.68,87,100,15.35,PF,1704511908
187,illizi,26.4833,8.4667,51.6,22,0,5.35,DZ,1704511908
188,college,64.8569,-147.8028,-7.65,77,40,0.0,US,1704511909
189,bislig,8.2167,126.2833,80.38,92,99,4.83,PH,1704511910
190,kalmunai,7.4167,81.8167,81.75,79,71,4.03,LK,1704511910
191,ancud,-41.8697,-73.8203,54.64,95,100,2.19,CL,1704511911
192,san jose del cabo,23.0589,-109.6977,70.74,64,40,4.61,MX,1704511911
193,tilcara,-23.5776,-65.3509,54.16,67,98,6.96,AR,1704511912
194,utrik,11.2278,169.8474,80.04,74,99,14.97,MH,1704511913
195,brisas de zicatela,15.8369,-97.0419,79.32,69,0,4.61,MX,1704511913
196,pokhara,28.2333,83.9833,62.55,31,1,3.31,NP,1704511914
197,el sauzal de rodriguez,31.9,-116.6833,54.77,60,3,3.29,MX,1704511915
198,cadale,2.7603,46.3222,76.32,75,70,15.97,SO,1704511915
199,atafu village,-8.5421,-172.5159,83.95,69,97,1.68,TK,1704511916
200,green river,41.5286,-109.4662,25.2,86,94,9.28,US,1704511916
201,novyy urgal,51.0736,132.5642,-7.47,88,100,0.87,RU,1704511917
202,yellowknife,62.456,-114.3525,-14.58,78,100,9.22,CA,1704511918
203,okotoks,50.7289,-113.9828,32.13,80,100,6.58,CA,1704511918
204,colby,39.3958,-101.0524,27.32,92,40,12.66,US,1704511919
205,severo-yeniseyskiy,60.3725,93.0408,1.76,94,100,4.56,RU,1704511920
206,invercargill,-46.4,168.35,60.03,73,29,15.01,NZ,1704511920
207,puerto natales,-51.7236,-72.4875,45.09,80,61,8.43,CL,1704511921
208,morehead city,34.7229,-76.726,48.97,87,0,5.75,US,1704511853
209,osorno,-40.5667,-73.15,57.51,100,100,4.61,CL,1704511922
210,sinabang,2.4803,96.3801,80.11,84,83,9.6,ID,1704511923
211,mankoeng,-23.9,29.8167,59.02,87,6,2.19,ZA,1704511924
212,ustka,54.5805,16.8619,23.65,80,90,10.71,PL,1704511924
213,kendari,-3.945,122.4989,87.42,65,99,3.65,ID,1704511925
214,noumea,-22.2763,166.4572,93.18,71,26,12.55,NC,1704511926
215,ust'-ordynskiy,52.805,104.7508,-3.66,87,31,6.71,RU,1704511926
216,iskateley,67.6803,53.1512,9.01,95,85,13.0,RU,1704511927
217,carinhanha,-14.3047,-43.765,70.18,98,96,0.25,BR,1704511928
218,el quebrachal,-25.2833,-64.0667,79.68,60,91,5.32,AR,1704511929
219,dakhla,23.6848,-15.958,65.53,73,94,12.88,EH,1704511930
220,luderitz,-26.6481,15.1594,61.77,93,0,7.09,,1704511930
221,kingston,17.997,-76.7936,81.55,83,20,2.3,JM,1704511915
222,colonia,50.9333,6.95,45.05,88,75,4.61,DE,1704511887
223,kanaya,34.8167,138.1333,60.28,44,20,17.27,JP,1704511932
224,okhotsk,59.3833,143.3,-14.71,80,1,12.46,RU,1704511744
225,boguchany,58.3814,97.4531,2.86,92,100,5.99,RU,1704511933
226,touros,-5.1989,-35.4608,80.58,76,27,11.05,BR,1704511934
227,hays,30.0502,-98.0336,53.06,73,0,1.01,US,1704511935
228,maracacume,-2.0428,-45.9592,74.12,98,100,2.24,BR,1704511936
229,agadez,19.75,10.25,56.43,25,7,2.73,NE,1704511937
230,al qadarif,14.0349,35.3834,66.07,34,12,7.7,SD,1704511937
231,olyokminsk,60.3736,120.4264,-11.6,92,100,6.85,RU,1704511938
232,san luis de la loma,17.2706,-100.8939,74.5,82,0,4.74,MX,1704511938
233,mineiros,-17.5694,-52.5511,70.83,88,83,4.47,BR,1704511939
234,vilyuchinsk,52.9306,158.4028,10.67,78,1,8.25,RU,1704511940
235,tahlequah,35.9154,-94.97,38.08,100,100,0.0,US,1704511940
236,zhalantun,48.0,122.7167,4.21,75,98,10.67,CN,1704511941
237,haiku-pauwela,20.9219,-156.3051,78.82,65,40,4.61,US,1704511942
238,aasiaat,68.7098,-52.8699,8.38,73,100,12.71,GL,1704511942
239,richards bay,-28.783,32.0377,71.2,82,31,11.81,ZA,1704511943
240,fale old settlement,-9.3852,-171.2468,84.33,68,100,2.13,TK,1704511944
241,carnarvon,-24.8667,113.6333,82.94,59,0,13.44,AU,1704511945
242,grand baie,-20.0182,57.5802,86.45,85,60,4.32,MU,1704511945
243,taulaga,-11.0553,-171.0883,84.7,64,91,3.09,AS,1704511946
244,antofagasta,-23.65,-70.4,69.08,78,40,5.55,CL,1704511663
245,maharaganj,27.1333,83.5667,65.16,52,45,5.46,IN,1704511948
246,freetown,8.484,-13.2299,78.26,82,30,5.66,SL,1704511702
247,happy valley-goose bay,53.3168,-60.3315,-1.89,60,0,9.22,CA,1704511949
248,avarua,-21.2078,-159.775,80.65,78,75,12.66,CK,1704511949
249,roswell,34.0232,-84.3616,45.99,61,100,16.11,US,1704511795
250,lata,40.1629,-8.3327,39.07,95,3,0.31,PT,1704511950
251,vila franca do campo,37.7167,-25.4333,64.89,99,92,12.46,PT,1704511951
252,new norfolk,-42.7826,147.0587,73.71,32,47,4.99,AU,1704511952
253,gorontalo,0.5412,123.0595,87.53,66,97,6.55,ID,1704511952
254,singkil,-7.9855,111.4161,88.66,61,70,1.92,ID,1704511953
255,tirthahalli,13.7,75.2333,74.46,79,75,3.67,IN,1704511953
256,buurhakaba,2.8026,44.0781,72.34,76,96,11.9,SO,1704511879
257,puerto baquerizo moreno,-0.9,-89.6,76.1,82,91,8.77,EC,1704511956
258,manokwari,-0.8667,134.0833,84.94,66,91,4.36,ID,1704511922
259,robertsport,6.7533,-11.3686,80.24,82,41,2.39,LR,1704511957
260,minas de marcona,-15.2119,-75.1103,62.92,86,66,11.27,PE,1704511958
261,aripuana,-9.1667,-60.6333,71.01,100,96,1.14,BR,1704511959
262,tralee,52.2704,-9.7026,41.97,85,19,6.17,IE,1704511959
263,jacksonville,30.3322,-81.6556,65.01,85,75,8.05,US,1704511960
264,zheleznogorsk-ilimskiy,56.5768,104.1217,-11.63,87,100,4.0,RU,1704511961
265,petropavlovsk-kamchatsky,53.0452,158.6483,9.19,80,0,11.99,RU,1704511962
266,chagoda,59.164,35.3285,-11.83,96,100,4.36,RU,1704511962
267,ad dabbah,18.05,30.95,57.88,35,75,7.07,SD,1704511963
268,tanjung sepat,2.6579,101.5629,84.85,83,20,2.3,MY,1704511964
269,tangalle,6.024,80.7911,82.56,78,83,8.95,LK,1704511965
270,whitehorse,60.7161,-135.0538,2.8,81,75,2.3,CA,1704511965
271,itaporanga,-7.3044,-38.1503,78.46,65,73,8.28,BR,1704511966
272,enewetak,11.3474,162.3373,80.46,69,86,16.8,MH,1704511967
273,borogontsy,62.6683,131.1683,-42.32,100,70,1.41,RU,1704511967
274,bethanie,-26.4833,17.15,70.99,30,20,3.58,,1704511968
275,grand-lahou,5.1367,-5.0242,78.66,88,6,5.64,CI,1704511969
276,margate,51.3813,1.3862,42.91,76,100,10.0,GB,1704511969
277,paka,4.6374,103.4368,82.33,83,40,5.75,MY,1704511945
278,stanley,54.868,-1.6985,35.71,96,0,2.3,GB,1704511867
279,bodaybo,57.8506,114.1933,-19.68,97,81,0.6,RU,1704511971
280,murzuq,25.9155,13.9184,56.5,26,0,9.53,LY,1704511972
281,san julian,21.0167,-102.1667,55.09,52,100,9.51,MX,1704511973
282,rongelap,11.1635,166.8941,80.55,70,93,14.23,MH,1704511973
283,mitu,1.1983,-70.1733,74.86,84,100,2.53,CO,1704511974
284,kavieng,-2.5744,150.7967,83.86,74,54,5.19,PG,1704511975
285,kourou,5.1552,-52.6478,80.65,89,92,8.57,GF,1704511975
286,edd,13.9297,41.6925,77.58,62,89,12.46,ER,1704511976
287,nabire,-3.3667,135.4833,85.96,71,44,3.58,ID,1704511976
288,madalena,41.2162,-8.3345,43.47,99,2,2.82,PT,1704511977
289,masterton,-40.9597,175.6575,56.39,86,100,4.47,NZ,1704511978
290,novara,45.5853,8.5778,42.94,94,75,2.3,IT,1704511978
291,palmer,42.1584,-72.3287,31.14,70,75,6.91,US,1704511979
292,fortuna,40.5982,-124.1573,48.34,95,100,0.0,US,1704511979
293,gizo,-8.103,156.8419,82.22,78,100,4.76,SB,1704511980
294,bad neustadt an der saale,50.3333,10.2167,40.17,93,100,3.8,DE,1704511902
295,tot'ma,59.9747,42.7642,-28.39,100,72,2.62,RU,1704511982
296,cedeira,43.6797,-8.0209,46.38,75,15,11.34,ES,1704511982
297,fuglafjordur,62.244,-6.814,41.47,84,100,22.86,FO,1704511983
298,lompoc,34.6391,-120.4579,56.12,64,0,17.27,US,1704511984
299,hue,16.4667,107.6,71.71,88,75,2.3,VN,1704511984
300,sechura,-5.5569,-80.8222,74.41,78,96,12.86,PE,1704511985
301,kiruna,67.8557,20.2251,-6.68,84,44,5.75,SE,1704511952
302,kone,-21.0595,164.8658,85.35,62,65,5.35,NC,1704511986
303,isiro,2.7739,27.616,61.7,56,94,2.28,CD,1704511987
304,alapayevsk,57.8516,61.6963,-19.98,100,44,3.24,RU,1704511988
305,demba,-5.51,22.2667,68.0,99,97,0.63,CD,1704511988
306,coruripe,-10.1256,-36.1756,79.12,84,91,13.94,BR,1704511747
307,ghadamis,30.1337,9.5007,56.91,26,0,18.77,LY,1704511989
308,marsh harbour,26.5412,-77.0636,71.74,75,97,20.49,BS,1704511845
309,roccella ionica,38.322,16.4009,59.58,88,100,9.4,IT,1704511990
310,quesnel,52.9999,-122.5029,28.9,93,100,0.0,CA,1704511991
311,shanhecun,44.7,127.2,12.06,87,94,5.48,CN,1704511992
312,nikel,69.4128,30.222,-5.62,97,100,4.47,RU,1704511992
313,whangarei,-35.7317,174.3239,70.14,85,79,4.94,NZ,1704511993
314,gunjur,13.2019,-16.7339,68.07,88,0,0.0,GM,1704511994
315,flying fish cove,-10.4217,105.6791,83.88,78,40,8.05,CX,1704511994
316,kapit,2.0167,112.9333,91.38,57,99,0.67,MY,1704511995
317,las vegas,36.175,-115.1372,54.28,29,0,23.0,US,1704511995
318,pacocha,-17.5833,-71.3333,69.37,91,94,6.89,PE,1704511996
319,cafayate,-26.073,-65.9761,72.82,70,85,7.43,AR,1704511997
320,nova sintra,14.8667,-24.7167,70.81,65,0,9.62,CV,1704511997
321,khmilnyk,49.5598,27.9575,32.23,78,97,11.36,UA,1704511998
322,pacasmayo,-7.4006,-79.5714,72.37,83,100,11.1,PE,1704511998
323,egilsstadir,65.2653,-14.3948,19.31,86,0,5.75,IS,1704511999
324,yinchuan,38.4681,106.2731,24.24,28,0,4.09,CN,1704511996
325,kasempa,-13.4584,25.8338,64.15,98,100,2.68,ZM,1704512000
326,matoury,4.8483,-52.3317,80.56,83,75,5.75,GF,1704512001
327,gaalkacyo,6.7697,47.4308,67.32,65,80,10.76,SO,1704512002
328,turkmenabat,39.0733,63.5786,40.98,81,100,9.22,TM,1704512002
329,badger,64.8,-147.5333,-7.73,77,0,0.0,US,1704512003
330,palora,-1.7,-77.9333,66.61,94,91,3.33,EC,1704512003
331,lebyazh'ye,55.2689,66.4947,-12.62,99,10,4.41,RU,1704512004
332,ulladulla,-35.35,150.4667,72.46,54,0,12.68,AU,1704512005
333,mount gambier,-37.8333,140.7667,80.49,50,100,5.37,AU,1704512005
334,fortaleza,-3.7227,-38.5247,83.21,78,20,8.05,BR,1704511879
335,an nuhud,12.7,28.4333,56.07,36,87,12.91,SD,1704512007
336,bandarbeyla,9.4942,50.8122,73.94,63,52,12.5,SO,1704512007
337,syktyvkar,61.6764,50.8099,-16.1,75,20,2.24,RU,1704511793
338,port elizabeth,-33.918,25.5701,66.09,90,75,20.71,ZA,1704512008
339,hasaki,35.7333,140.8333,57.6,48,16,13.8,JP,1704512010
340,miracatu,-24.2814,-47.4597,70.86,97,74,0.81,BR,1704512011
341,quimili,-27.6333,-62.4167,79.16,49,0,13.49,AR,1704512011
342,olonkinbyen,70.9221,-8.7187,20.12,76,98,5.35,SJ,1704512012
343,taoudenni,22.6783,-3.9836,65.35,19,1,3.85,ML,1704512013
344,novo aripuana,-5.1206,-60.3797,74.48,93,98,0.4,BR,1704512013
345,vadso,70.0744,29.7487,17.76,93,100,10.36,NO,1704512014
346,mamadysh,55.7152,51.408,-10.12,100,84,3.58,RU,1704512014
347,bougouni,11.417,-7.479,74.53,15,99,4.25,ML,1704512015
348,huarmey,-10.0681,-78.1522,72.63,85,100,9.6,PE,1704512016
349,beira,-19.8436,34.8389,75.29,88,75,6.91,MZ,1704512017
350,port mathurin,-19.6833,63.4167,81.75,77,48,5.57,MU,1704512018
351,beipiao,41.7919,120.7792,21.69,45,59,11.34,CN,1704511812
352,panorama,40.5878,23.0315,52.38,79,100,1.99,GR,1704512019
353,faya-largeau,17.9257,19.1043,60.67,29,23,12.35,TD,1704512019
354,luza,60.6308,47.2512,-14.85,100,27,0.36,RU,1704512020
355,nova vicosa,-17.8919,-39.3719,75.72,95,100,4.79,BR,1704512021
356,st. john's,47.5649,-52.7093,26.15,94,100,31.07,CA,1704512021
357,padangsidempuan,1.3667,99.2667,79.34,90,100,2.08,ID,1704512022
358,ibeto,10.4854,5.145,70.84,18,3,6.08,NG,1704512023
359,magadan,59.5667,150.8,-18.47,80,0,5.95,RU,1704512023
360,tromso,69.6496,18.957,26.62,86,75,4.61,NO,1704511803
361,ain sukhna,29.6002,32.3167,58.33,68,65,3.6,EG,1704512025
362,sagua la grande,22.8067,-80.0756,68.99,87,0,8.52,CU,1704512025
363,saint-pierre,-21.3393,55.4781,79.18,94,75,11.5,RE,1704511809
364,luchegorsk,46.4764,134.2569,8.82,86,100,5.3,RU,1704512026
365,alliance,40.9153,-81.1059,26.06,84,100,4.92,US,1704511914
366,ust-nera,64.5667,143.2,-39.21,99,98,3.74,RU,1704512028
367,christchurch,-43.5333,172.6333,71.55,55,40,12.66,NZ,1704512027
368,braganca,-1.0536,-46.7656,75.2,98,99,1.66,BR,1704512029
369,castillejos,14.9333,120.2,87.35,51,20,17.27,PH,1704512030
370,cimin,39.7101,39.7021,30.27,64,0,9.22,TR,1704512031
371,orcopampa,-15.2661,-72.3417,49.84,87,99,2.84,PE,1704512032
372,susuman,62.7833,148.1667,-45.02,100,96,1.01,RU,1704512032
373,kerikeri,-35.2268,173.9474,69.73,84,92,4.79,NZ,1704512033
374,sao jose de piranhas,-7.1206,-38.5019,77.61,57,81,4.38,BR,1704512034
375,taltal,-25.4,-70.4833,66.76,79,32,2.57,CL,1704512035
376,say,13.1007,2.3689,69.85,16,45,9.33,NE,1704512036
377,namsos,64.4662,11.4957,28.45,86,100,14.97,NO,1704512036
378,kon tum,14.35,108.0,81.82,43,63,4.32,VN,1704512037
379,raja,8.4596,25.678,62.89,25,83,4.7,SS,1704511760
380,inarajan village,13.2736,144.7484,88.77,88,14,13.82,GU,1704512038
381,tsengel,49.4783,100.8894,-2.54,79,10,3.47,MN,1704512039
382,es castell,39.8795,4.2854,50.68,93,75,21.85,ES,1704512039
383,preobrazheniye,42.9019,133.9064,22.84,48,4,4.72,RU,1704512040
384,garh maharaja,30.8339,71.9053,56.62,30,0,3.13,PK,1704512040
385,ashkasham,36.6833,71.5333,17.98,55,10,3.58,AF,1704512041
386,jieshi,22.8134,115.8257,67.78,63,18,4.18,CN,1704512042
387,burabay,53.0838,70.3138,9.05,93,89,4.5,KZ,1704512042
388,northam,51.0333,-4.2167,45.61,88,10,14.88,GB,1704512043
389,serra branca,-6.5333,-38.2667,77.23,80,95,11.83,BR,1704512044
390,suihua,46.6406,126.9969,4.69,90,95,3.42,CN,1704512045
391,keelung,25.1283,121.7419,73.29,70,3,4.76,TW,1704512045
392,bojia,26.4672,111.9681,62.1,59,36,3.78,CN,1704512046
393,papao,-17.75,-149.55,83.88,88,100,13.18,PF,1704512047
394,rio grande,-32.035,-52.0986,71.94,84,3,15.05,BR,1704512048
395,baise city,23.8997,106.6133,64.36,88,100,2.51,CN,1704512048
396,yerofey pavlovich,53.9667,121.9667,1.02,60,100,4.52,RU,1704512049
397,galveston,29.3669,-94.9669,52.99,86,0,3.06,US,1704512050
398,ola,59.5833,151.2833,-17.86,85,1,6.87,RU,1704512050
399,garland,32.9126,-96.6389,47.26,90,75,0.0,US,1704512051
400,kenai,60.5544,-151.2583,24.85,86,100,6.91,US,1704512034
401,hilo,19.7297,-155.09,75.25,82,0,4.61,US,1704512020
402,soio,-6.1349,12.3689,77.65,81,7,8.41,AO,1704512053
403,salekhard,66.53,66.6019,-0.74,89,94,11.92,RU,1704511938
404,zaozersk,69.4005,32.4476,-10.12,99,86,7.0,RU,1704512054
405,waingapu,-9.6567,120.2641,89.19,60,71,8.28,ID,1704512055
406,ust'-kulom,61.6864,53.6902,-17.82,100,98,1.66,RU,1704512056
407,nola,40.922,14.5329,61.21,83,99,4.65,IT,1704511985
408,shimoda,34.6667,138.95,62.96,58,2,24.2,JP,1704512057
409,tobelo,1.7284,128.0095,84.43,75,100,10.16,ID,1704512058
410,jiangyou,31.7667,104.7167,56.1,43,6,3.71,CN,1704512059
411,naantali,60.4674,22.0243,-1.79,78,0,3.44,FI,1704512059
412,havre,49.5833,0.3333,43.2,93,100,9.22,FR,1704511928
413,taksimo,56.3444,114.8794,-13.59,81,14,0.16,RU,1704512061
414,al mayadin,35.0209,40.4535,51.4,58,0,11.21,SY,1704512061
415,zhigulevsk,53.3997,49.4953,1.98,100,93,2.73,RU,1704512062
416,island harbour,50.724,-1.2758,42.48,91,87,1.99,GB,1704512062
417,mili,6.0815,171.735,81.88,73,100,18.43,MH,1704512063
418,rivne,50.6231,26.2274,35.08,90,100,7.76,UA,1704511859
419,esil,51.9556,66.4042,21.04,97,100,3.15,KZ,1704512064
420,broken hill,-31.95,141.4333,89.26,38,100,8.16,AU,1704512065
421,la ronge,55.1001,-105.2842,3.45,78,100,5.75,CA,1704512066
422,kidal,18.4411,1.4078,67.23,16,96,5.86,ML,1704512066
423,praia da vitoria,38.7333,-27.0667,60.76,82,20,11.77,PT,1704512067
424,selfoss,63.9331,-20.9971,21.47,94,73,4.79,IS,1704512068
425,mirnyy,62.5353,113.9611,-31.77,66,12,7.0,RU,1704512068
426,ulaangom,49.9811,92.0667,-6.75,97,100,2.33,MN,1704512007
427,belmonte,-15.8631,-38.8828,77.41,93,99,7.31,BR,1704512069
428,sferracavallo,42.726,12.0956,56.44,98,100,11.12,IT,1704512070
429,verkhnevilyuysk,63.4453,120.3167,-43.19,100,96,0.72,RU,1704512071
430,jamay,20.3,-102.7167,58.71,62,36,4.97,MX,1704512071
431,aberglasslyn,-32.7,151.5333,86.09,37,1,12.8,AU,1704512072
432,pandan,14.0453,124.1694,79.43,89,66,15.59,PH,1704512073
433,tura,25.5198,90.2201,71.19,40,4,1.12,IN,1704512073
434,bor,56.3567,44.0669,-15.0,100,93,1.74,RU,1704511805
435,port macquarie,-31.4333,152.9167,77.9,58,91,8.75,AU,1704512075
436,karratha,-20.7377,116.8463,93.6,40,1,14.83,AU,1704512076
437,krasnoturansk,54.3186,91.5639,7.23,93,100,4.0,RU,1704512076
438,krasnyy chikoy,50.3643,108.7512,-4.27,90,67,2.46,RU,1704512077
439,kabare,-2.4683,28.8242,59.58,92,96,0.47,CD,1704512078
440,lae,-6.7221,146.9847,85.98,70,100,7.07,PG,1704512078
441,taormina,37.8536,15.2885,61.61,84,99,4.0,IT,1704512079
442,labrador city,52.9463,-66.9114,-11.29,77,20,8.05,CA,1704512079
443,dunedin,-45.8742,170.5036,54.81,91,26,4.0,NZ,1704511922
444,jayapura,-2.5333,140.7,87.19,67,66,6.15,ID,1704512081
445,oyama,36.3,139.8,54.68,31,0,2.84,JP,1704512082
446,okha,53.5739,142.9478,-3.82,96,69,12.08,RU,1704512083
447,as sulaymaniyah,35.5611,45.4375,46.58,86,95,4.32,IQ,1704511814
448,aydarken,39.9443,71.3429,32.83,60,74,8.23,KG,1704512084
449,cooma,-36.2333,149.1333,74.84,42,5,3.8,AU,1704512084
450,swakopmund,-22.6833,14.5333,63.48,94,15,2.1,,1704512085
451,sarpang,26.864,90.2674,70.56,39,1,3.58,BT,1704512086
452,aykhal,66.0,111.5,-22.13,97,96,8.59,RU,1704512086
453,halifax,44.6453,-63.5724,19.51,81,16,11.01,CA,1704511916
454,terrace,54.5163,-128.6035,35.51,93,100,5.75,CA,1704512087
455,purpe,64.4803,76.6897,-18.35,99,55,8.23,RU,1704512088
456,buka,40.8108,69.1986,49.37,50,57,1.83,UZ,1704512089
457,mabaruma,8.2,-59.7833,72.68,95,88,1.95,GY,1704512089
458,zhigalovo,54.8097,105.1578,-14.6,93,100,3.11,RU,1704512090
459,jedlicze,49.7175,21.6489,44.56,89,100,7.36,PL,1704512090
460,charcas,23.1333,-101.1167,52.11,35,70,5.95,MX,1704512091
461,negotin,44.2264,22.5308,41.54,72,100,3.18,RS,1704511965
462,kapuskasing,49.4169,-82.4331,1.4,78,0,6.91,CA,1704512093
463,westport,41.1415,-73.3579,32.86,68,0,3.44,US,1704512093
464,saudarkrokur,65.7461,-19.6394,24.31,93,85,9.51,IS,1704512094
465,porbandar,21.6422,69.6093,67.98,30,33,6.91,IN,1704512082
466,santa cruz,-17.8,-63.1667,81.86,83,43,5.75,BO,1704512095
467,kapa'a,22.0752,-159.319,80.58,84,0,5.75,US,1704512096
468,nagqu,31.5,92.0,10.69,44,80,5.03,CN,1704512096
469,bodo,67.28,14.405,30.94,97,100,6.91,NO,1704511951
470,esquel,-42.9,-71.3167,51.39,86,96,4.9,AR,1704511957
471,kargasok,59.0556,80.8572,16.97,95,100,7.0,RU,1704512098
472,prainha,-1.8,-53.48,74.28,98,100,1.05,BR,1704512099
473,kuanda,56.3161,116.0806,-19.57,92,25,1.34,RU,1704512099
474,porto seguro,-16.4497,-39.0647,79.32,94,100,5.75,BR,1704511984
475,ashland,40.8167,-82.2665,28.06,93,100,4.68,US,1704512101
476,geraldton,-28.7667,114.6,97.21,21,12,17.27,AU,1704512101
477,salalah,17.0151,54.0924,71.69,49,0,6.91,OM,1704511925
478,hozat,39.1083,39.2213,20.77,68,1,6.35,TR,1704512102
479,betio village,1.358,172.9211,87.84,76,44,15.01,KI,1704512103
480,adygeysk,44.88,39.19,41.68,93,0,6.71,RU,1704512104
481,tidjikja,18.5564,-11.4271,65.21,16,0,10.4,MR,1704512104
482,luena,-11.7833,19.9167,64.58,94,100,4.61,AO,1704512105
483,januaria,-15.4833,-44.3667,70.7,98,100,1.45,BR,1704512107
484,berdigestyakh,62.0989,126.6992,-38.15,100,100,2.04,RU,1704512109
485,summerside,46.3959,-63.7876,16.14,67,98,14.97,CA,1704512110
486,tulun,54.5611,100.5792,0.39,81,100,11.07,RU,1704512111
487,deba,10.2086,11.3859,67.91,25,99,4.61,NG,1704512112
488,san luis,-33.295,-66.3356,73.02,63,14,10.0,AR,1704512113
489,chaoyang,41.5703,120.4586,24.69,37,39,7.4,CN,1704512113
490,gundorovskiy,46.7805,41.8968,39.58,89,95,16.8,RU,1704512114
491,plettenberg bay,-34.0527,23.3716,65.21,90,48,5.1,ZA,1704512115
492,kayangel,8.0823,134.7173,83.82,75,100,14.12,PW,1704512115
493,narvik,68.4384,17.4272,26.8,96,86,0.78,NO,1704512116
494,prince rupert,54.3161,-130.3201,40.69,92,100,29.93,CA,1704512116
495,guerrero negro,27.9769,-114.0611,60.82,54,0,10.45,MX,1704512117
496,vila velha,-20.3297,-40.2925,75.94,91,20,5.01,BR,1704512118
497,muang phonsavan,19.45,103.2167,74.39,44,49,2.55,LA,1704512118
498,patterson,37.4716,-121.1297,55.06,80,54,5.39,US,1704512119
499,khor,47.8861,134.9464,7.18,91,100,6.02,RU,1704512120
500,bubaque,11.2833,-15.8333,78.51,64,78,8.81,GW,1704512120
501,khamis mushait,18.3064,42.7292,47.01,81,0,6.91,SA,1704512121
502,chu,43.5983,73.7614,40.53,80,100,11.63,KZ,1704512121
503,garissa,-0.4536,39.6401,78.13,77,46,6.17,KE,1704512122
504,naifaru,5.4444,73.3657,81.93,74,100,2.71,MV,1704512123
505,peace river,56.2501,-117.286,5.31,85,75,3.44,CA,1704512123
506,port alfred,-33.5906,26.891,64.18,96,25,7.0,ZA,1704512125
507,porto novo,6.4965,2.6036,80.02,81,27,2.37,BJ,1704512125
508,kondopoga,62.2057,34.2614,-29.52,100,90,2.28,RU,1704512126
509,alice springs,-23.7,133.8833,94.55,29,99,5.75,AU,1704512127
510,ji'an,27.1172,114.9793,62.37,56,65,5.21,CN,1704511913
511,rodolfo sanchez taboada,31.7167,-116.5667,54.86,60,2,2.26,MX,1704512128
512,san vicente de chucuri,6.881,-73.4098,74.57,84,65,3.74,CO,1704512129
513,mwatate,-3.5029,38.3795,69.85,87,100,3.8,KE,1704512129
514,dubno,50.4169,25.7343,35.13,89,100,7.74,UA,1704512130
515,hanceville,34.0607,-86.7675,45.55,95,100,14.43,US,1704512130
516,nadi,-17.8,177.4167,87.8,66,75,8.05,FJ,1704512131
517,coquimbo,-29.9533,-71.3436,62.33,82,0,6.91,CL,1704512132
518,la'ie,21.6477,-157.9253,80.56,81,99,3.0,US,1704512132
519,barika,35.389,5.3658,44.78,68,23,23.29,DZ,1704511922
520,shantobe,52.4581,68.1839,11.86,97,99,2.15,KZ,1704512134
521,sorsk,54.0033,90.2467,15.57,93,100,5.99,RU,1704512134
522,campobello di mazara,37.6358,12.7443,59.85,92,100,16.96,IT,1704512100
523,badr hunayn,23.7829,38.7905,68.18,73,0,2.15,SA,1704512136
524,nueva guinea,11.6876,-84.4562,70.14,98,7,3.89,NI,1704512136
525,alpena,45.0617,-83.4327,28.72,89,100,0.0,US,1704512137
526,kinmparana,12.8402,-4.9199,76.53,13,100,6.87,ML,1704512138
527,port moresby,-9.4431,147.1797,92.62,59,40,11.5,PG,1704512138
528,najaf,31.9985,44.3398,49.78,76,1,6.91,IQ,1704512139
529,igarka,67.4667,86.5833,-13.49,98,98,5.32,RU,1704512139
530,fort st. john,56.2499,-120.8529,6.69,92,100,6.91,CA,1704512140
531,nishinoomote,30.7333,131.0,57.76,94,75,5.75,JP,1704512141
532,laguna,38.421,-121.4238,52.11,75,0,3.44,US,1704512141
533,at taj,24.2049,23.2857,51.98,35,5,5.7,LY,1704512142
534,sittwe,20.15,92.9,74.37,41,36,4.54,MM,1704512143
535,homer,59.6425,-151.5483,33.69,86,0,4.61,US,1704512143
536,keren,15.7778,38.4581,58.73,84,5,4.94,ER,1704512144
537,tshabong,-26.05,22.45,75.87,53,14,8.25,BW,1704512145
538,al ghayzah,16.2079,52.176,71.47,51,52,7.7,YE,1704512145
539,sogndal,61.2283,7.1003,8.98,92,22,0.0,NO,1704512146
540,gisborne,-38.6533,178.0042,64.06,75,63,12.48,NZ,1704512146
541,nueva loja,0.0847,-76.8828,74.66,80,100,1.81,EC,1704512147
542,tazovsky,67.4667,78.7,-13.9,97,97,7.11,RU,1704512149
543,calama,-22.4667,-68.9333,57.69,30,0,5.75,CL,1704512150
544,shingu,33.7333,135.9833,61.72,47,6,7.52,JP,1704512150
545,cabinda,-5.55,12.2,78.94,89,19,3.44,AO,1704512151
546,holualoa,19.6228,-155.9522,75.56,72,0,5.75,US,1704512152
547,idri,27.5,13.2667,51.55,33,0,3.0,LY,1704512153
548,prince albert,53.2001,-105.7677,4.95,85,100,12.66,CA,1704512153
549,yanam,16.7333,82.2167,77.85,62,90,10.58,IN,1704512154
550,srebrenik,44.7078,18.4881,51.66,76,100,5.97,BA,1704512154
551,stanthorpe,-28.6667,151.95,71.42,77,72,12.71,AU,1704512155
552,massakory,12.996,15.7293,66.09,19,53,10.04,TD,1704512157
553,alma,48.5501,-71.6491,9.61,85,85,8.52,CA,1704512157
554,lyskovo,56.0328,45.0422,-17.64,100,63,0.04,RU,1704512158
555,mahibadhoo,3.7833,72.9667,82.15,78,100,7.09,MV,1704511952
556,saint croix,17.7397,-64.7388,74.95,86,0,4.61,VI,1704512159
557,attapeu,14.8,106.8333,84.81,44,77,4.25,LA,1704512160
558,vanino,49.0869,140.2543,9.93,81,99,4.43,RU,1704512161
559,dul'durga,50.6761,113.5931,0.21,68,3,3.33,RU,1704512146
560,mont-joli,48.5839,-68.1921,14.5,74,100,12.57,CA,1704512162
561,ikwiriri,-7.9562,38.9716,74.48,95,97,3.4,TZ,1704512163
562,amahai,-3.3333,128.9167,83.44,76,100,2.1,ID,1704512163
563,bel ombre,-4.6167,55.4167,80.44,83,75,2.3,SC,1704512164
564,saint-philippe,-21.3585,55.7679,79.11,86,93,7.0,RE,1704512164
565,los banos,14.1667,121.1833,88.79,61,35,11.86,PH,1704512166
566,hartford,41.7668,-72.7662,28.85,84,59,1.01,US,1704512166
567,nasiriyah,31.0521,46.261,57.11,53,0,6.98,IQ,1704512167
568,tanout,14.9709,8.8879,61.39,23,42,9.35,NE,1704512167
569,ocher,57.8904,54.7202,-26.59,100,30,2.13,RU,1704512168
570,gorno-altaysk,51.9561,85.955,22.51,83,100,5.99,RU,1704512169
571,nsanje,-16.92,35.262,72.52,94,44,1.3,MW,1704512169
572,rubtsovsk,51.5,81.25,25.25,92,100,12.68,RU,1704512170
573,hovd,48.0056,91.6419,6.13,71,61,1.86,MN,1704512171
574,jalai nur,49.45,117.7,-2.78,77,2,9.26,CN,1704512171
575,regina,50.4501,-104.6178,18.03,86,100,13.8,CA,1704512172
576,pauini,-7.7136,-66.9764,73.29,99,59,2.08,BR,1704512172
577,betul,21.9153,77.8961,67.87,63,31,4.25,IN,1704512173
578,brokopondo,4.75,-55.1667,75.2,91,46,8.77,SR,1704512174
579,kill devil hills,36.0307,-75.676,42.98,84,0,0.0,US,1704512174
580,ta'izz,13.5,44.0,59.85,76,22,3.94,YE,1704512175
581,kataba,13.9833,44.3833,53.71,67,20,0.78,YE,1704512176
582,shache,38.4167,77.2406,25.72,45,100,3.15,CN,1704512176
583,steti,50.453,14.3742,41.02,92,100,2.89,CZ,1704512177
584,zouerate,22.7187,-12.4521,62.67,20,4,6.38,MR,1704512178
585,sabang,5.8933,95.3214,82.15,77,100,14.74,ID,1704512178
586,kaka,37.3482,59.6143,55.29,28,93,3.74,TM,1704512179
587,taytay,14.5678,121.1394,90.03,63,20,6.91,PH,1704512179
588,mata-utu,-13.2816,-176.1745,83.62,77,100,11.05,WF,1704511967
589,jaumave,23.4167,-99.3833,54.32,81,53,1.5,MX,1704512181
590,ulsteinvik,62.3432,5.8487,27.75,69,81,1.99,NO,1704512181
591,solleftea,63.1667,17.2667,-5.94,99,18,2.86,SE,1704512182
592,murudeshwara,14.0943,74.4845,81.05,68,98,2.42,IN,1704512183
593,berezovo,63.9381,65.0419,-18.15,99,83,6.67,RU,1704512153
594,zilupe,56.3862,28.1217,4.48,98,96,3.42,LV,1704512184
595,alappuzha,9.49,76.3264,84.0,81,67,5.14,IN,1704512185
596,ajnala,31.8425,74.7589,44.56,100,100,0.0,IN,1704512185
